"PharmID","Name","Address","City","State","Zip","Latitude","Longitude","Cluster","Cluster_centroid_Latitude","Cluster_centroid_Longitude","distance_to_clust","County","FIPS","Pharm_County_pop","Pharm_Total_Land","Pharm_RUC"
"P43841","WALGREENS #7941","1400 MICHIGAN ST","SIDNEY","OH",453652449,40.288041,-84.177042,"OH1",40.2879094,-84.1764526,52.1488463642254,"shelby",39149,48902,407.695,4
"P44161","KHN Pharmacy - Fort Hamilton","1010 Cereal Ave","Hamilton","OH",450132784,39.414722,-84.572412,"OH10",39.4117281,-84.5756171,432.503032526056,"butler",39017,375702,466.529,1
"P44327","SOMC Pharmacy South Campus","1248 Kinneys Ln","Portsmouth","OH",456622927,38.746396,-82.986844,"OH102",38.7480129285714,-82.9819100714286,464.64265254114,"scioto",39145,76871,610.229,4
"P43824","WALMART PHARMACY 10-5184","6674 WINCHESTER BLVD","CANAL WINCHESTER","OH",43110,39.863197,-82.820427,"OH104",39.870956,-82.7930606666667,2492.64820672783,"franklin",39049,1253507,532.417,1
"P42705","RITE AID PHARMACY  01283","207 NORTH COURT STREET","MEDINA","OH",442562201,41.14133,-81.864129,"OH105",41.1441379166667,-81.8577088333333,622.396455987415,"medina",39103,176362,421.458,1
"P43126","CHEFFY DRUGS LLC","148 E MAIN ST","BARNESVILLE","OH",43713,39.987601,-81.175395,"OH108",39.988149,-81.1708823333333,389.693394961282,"belmont",39013,68889,532.124,3
"P42537","DAVIS DRUG","109 WEST ST","CALDWELL","OH",437241359,39.744159,-81.516612,"OH109",39.743582,-81.517776,118.542170869611,"noble",39121,14498,398.011,7
"P43455","KROGER PHARMACY","5420 LIBERTY FAIRFIELD ROAD","HAMILTON","OH",45011,39.418437,-84.474459,"OH11",39.403194,-84.46358,1937.71879776828,"butler",39017,375702,466.529,1
"P42544","FAMILY DRUG","120 S VINE ST","COLUMBIANA","OH",44408,40.886919,-80.694591,"OH111",40.89467325,-80.68440025,1216.78213933172,"columbiana",39029,104584,531.918,4
"P42549","QUAY DRUGS INC","2 PUBLIC SQUARE","GALION","OH",44833,40.733609,-82.789815,"OH112",40.748995,-82.78051625,1883.78647392733,"crawford",39033,42231,401.786,4
"P42550","CORNER PHARMACY LLC","259 JEFFERSON ST","GREENFIELD","OH",451231366,39.351828,-83.382793,"OH113",39.351026,-83.3865043333333,331.712391240476,"highland",39071,43031,553.083,6
"P43829","WALGREENS #07798","911 N MEMORIAL DR","LANCASTER","OH",431301745,39.724369,-82.608843,"OH114",39.7256043846154,-82.6097946153846,159.845774326142,"fairfield",39045,151526,504.408,1
"P42555","Shrivers Pharmacy #7","530 N MARKET ST","MC ARTHUR","OH",456511131,39.253757,-82.477897,"OH115",39.253757,-82.477897,0,"vinton",39163,13142,412.356,8
"P42556","SHRIVERS PHARMACY","105 N KENNEBEC AVE","MCCONNELSVILLE","OH",437561254,39.64983,-81.853062,"OH116",39.64983,-81.853062,0,"morgan",39115,14773,416.426,6
"P42557","Griffith L Vincent","283 YANKEETOWN ST","MT STERLING","OH",431439410,39.71395,-83.267938,"OH117",39.71395,-83.267938,0,"madison",39097,43732,465.81,1
"P42558","SHRIVERS PHARMACY","40 WATKINS ST","NELSONVILLE","OH",457641452,39.457003,-82.22778,"OH118",39.456574,-82.2268776666667,91.0798408852445,"athens",39009,65563,503.627,4
"P42559","NORTHSIDE NEW CONCORD PHARMACY","10 E MAIN ST","NEW CONCORD","OH",437621215,39.99387,-81.733374,"OH119",39.99387,-81.733374,0,"muskingum",39119,85933,664.543,4
"P42786","Samaritan Pharmacy","1025 CENTER ST","ASHLAND","OH",44805,40.858708,-82.310232,"OH12",40.86082,-82.3123956666667,297.420591667854,"ashland",39005,53299,422.961,4
"P43906","WALGREENS #9377","2124 E STATE ST","SALEM","OH",444602455,40.90108,-80.830775,"OH120",40.90125025,-80.835804875,423.636521877054,"columbiana",39029,104584,531.918,4
"P42564","Benzer Pharmacy","244 N MAIN ST","UTICA","OH",430809701,40.237763,-82.452164,"OH121",40.237763,-82.452164,0,"licking",39089,170678,682.437,1
"P44255","SOMC PHARMACY WEST UNION","90 Cic Blvd","West Union","OH",456938024,38.787239,-83.558203,"OH122",38.788766,-83.556034,253.605475961438,"adams",39001,27926,583.866,6
"P43109","RITE AID PHARMACY  02795","148 NORTH MAIN STREET","WOODSFIELD","OH",437931002,39.764593,-81.114595,"OH123",39.7632415,-81.1155295,170.379237312873,"monroe",39111,14239,455.723,8
"P44401","WALGREENS #17284","432 32nd St","BELLAIRE","OH",439061574,40.014462,-80.745444,"OH124",40.0262491111111,-80.7471887777778,1320.53898247503,"marshall",54051,32006,305.432,3
"P42570","FITZGERALDS PHARMACY","305 W MAIN ST","WILLIAMSBURG","OH",451761309,39.054231,-84.053837,"OH125",39.054231,-84.053837,0,"clermont",39025,202166,452.124,1
"P43349","RITE AID PHARMACY  00256","1081 MOUNT VERNON AVENUE","MARION","OH",433025643,40.58066,-83.10155,"OH126",40.5775980833333,-83.1075640833333,612.152345250124,"marion",39101,65483,403.808,4
"P42581","FRUTH PHARMACY 03","2991 STATE RT 160","GALLIPOLIS","OH",45631,38.843966,-82.233284,"OH127",38.834323,-82.220525,1541.49743814863,"gallia",39053,30203,466.532,6
"P42606","MEDICINE SHOPPE 0298","465 WEST PERRY STREET","TIFFIN","OH",44883,41.113635,-83.196852,"OH128",41.1133408333333,-83.1909068333333,499.689715541486,"seneca",39147,55549,551.027,4
"P43527","KROGER PHARMACY #838","1161 EAST DAYTONYELLOWSPRINGS RD","FAIRBORN","OH",45324,39.786034,-83.995064,"OH130",39.786034,-83.995064,0,"greene",39057,164825,413.625,2
"P42585","TUCKERS OTTAWA PHARMACY","1831 E MAIN ST","OTTAWA","OH",458751695,41.021189,-84.025442,"OH131",41.0249506666667,-84.0371013333333,1064.98232417094,"putnam",39137,34037,482.545,6
"P42587","MINFORD PHARMACY","8746 STATE ROUTE 335","MINFORD","OH",45653,38.858946,-82.858069,"OH132",38.858946,-82.858069,0,"scioto",39145,76871,610.229,4
"P42718","KROGER PHARMACY","226 E Perkins Ave","SANDUSKY","OH",44870,41.432155,-82.694286,"OH133",41.425305,-82.6904332727273,827.569349207424,"erie",39043,75369,251.379,4
"P44363","Shrivers Pharmacy #8","21 Hocking Mall","Logan","OH",43138,39.544569,-82.431401,"OH134",39.5431775,-82.4326685,189.296013447767,"hocking",39073,28547,421.328,1
"P43095","KROGER PHARMACY","731 W Market St","TROY","OH",45373,40.029996,-84.218933,"OH135",40.0202674285714,-84.2144802857143,1147.57006278629,"miami",39109,104081,406.511,2
"P42599","Scarbrough Pharmacy","139 W MAIN ST","DESHLER","OH",435161159,41.20739,-83.902969,"OH137",41.20739,-83.902969,0,"henry",39069,27463,416.009,6
"P42602","MCFADDEN PHARMACY","115 E MAIN ST","BAINBRIDGE","OH",45612,39.227737,-83.269452,"OH138",39.227737,-83.269452,0,"ross",39141,77125,689.187,4
"P42609","OKULEYS PHARMACY","102 S MAIN ST","CONTINENTAL","OH",458319151,41.096949,-84.266055,"OH139",41.096949,-84.266055,0,"putnam",39137,34037,482.545,6
"P44028","ROSS PARK PHARMACY WEST","4100 JOHNSON RD STE 105","STEUBENVILLE","OH",43952,40.366658,-80.658003,"OH14",40.3664483333333,-80.6644509166667,547.385350825305,"jefferson",39081,67349,408.123,3
"P42610","NEIMAYER PHARMACY","112 E MAIN ST","SCIO","OH",439880394,40.39619,-81.085337,"OH140",40.39619,-81.085337,0,"harrison",39067,15397,402.33,6
"P43597","KROGER PHARMACY","610 CARROL STREET","NEW LEXINGTON","OH",43764,39.721608,-82.203596,"OH141",39.720796,-82.204797,136.913272478279,"perry",39127,35983,407.934,1
"P42615","Blake Pharmacy","103 N MAIN ST","PEEBLES","OH",456601246,38.948867,-83.406413,"OH142",38.948867,-83.406413,0,"adams",39001,27926,583.866,6
"P43429","MERCY HOSPITAL OF WILLARD","1100 Neal Zick Rd","WILLARD","OH",44890,41.03747,-82.709746,"OH144",41.0311155,-82.7084075,716.253077071544,"huron",39077,58497,491.493,4
"P42620","DONOHOO PHARMACY","114 S MAIN ST","GEORGETOWN","OH",451211292,38.865668,-83.904537,"OH145",38.8647865,-83.900967,324.620082686362,"brown",39015,43799,490.017,1
"P43943","KROGER PHARMACY","7625 SAWMILL RD","DUBLIN","OH",43016,40.1215,-83.092223,"OH146",40.1225864,-83.11274184,1750.8085017695,"franklin",39049,1253507,532.417,1
"P42628","ASHVILLE APOTHECARY","3400 State Route 752","ASHVILLE","OH",43103,39.723733,-82.955659,"OH148",39.723733,-82.955659,0,"pickaway",39129,57075,501.229,1
"P44193","FRUTH PHARMACY 26","1848 State Route 141","Ironton","OH",456385213,38.526842,-82.663634,"OH149",38.52952,-82.6704298333333,662.661660023902,"greenup",21089,36012,344.462,2
"P43048","WALGREENS #7470","1032 HARRISON AVE","HARRISON","OH",450301522,39.257882,-84.803796,"OH15",39.2563396,-84.8007854,311.16253836339,"hamilton",39061,808703,405.407,1
"P42630","CVS Pharmacy #05813","463 TIFFIN AVE","FINDLAY","OH",45840,41.044849,-83.642687,"OH150",41.0457165,-83.6351703333333,638.416359511233,"hancock",39063,75508,531.326,4
"P43768","WALGREENS #7489","57 W MAIN ST","AMELIA","OH",45102,39.031192,-84.221108,"OH152",39.0307084,-84.221778,79.087584067619,"clermont",39025,202166,452.124,1
"P42782","RITE AID PHARMACY  01635","306 EAST MAIN STREET","POMEROY","OH",457691023,39.028325,-82.030466,"OH153",39.02499625,-82.0265455,502.254185294373,"mason",54053,27000,430.767,6
"P42635","POWHATAN HEALTH CENTER PHARMACY","63 HWY 7 S","POWHATAN POINT","OH",43942,39.859552,-80.815735,"OH154",39.859552,-80.815735,0,"marshall",54051,32006,305.432,3
"P43464","Giant Eagle Pharmacy #4016","11031 State Route 212, N.E.","BOLIVAR","OH",44612,40.640805,-81.442222,"OH155",40.640294,-81.3983555,3705.85754661571,"tuscarawas",39157,92531,567.432,4
"P43315","RITE AID PHARMACY  04279","15596 WEST HIGH STREET","MIDDLEFIELD","OH",440629292,41.463283,-81.085506,"OH156",41.46217,-81.08414175,168.235020452283,"geauga",39055,93895,400.301,1
"P43423","WALMART PHARMACY 10-2572","990 WEST EMMITT AVENUE","WAVERLY","OH",45690,39.110513,-82.997714,"OH157",39.1081875,-82.9965065,279.095276332031,"pike",39131,28291,440.28,7
"P42647","CHARLESTON PHARMACY","127 S CHILLICOTHE ST","S CHARLESTON","OH",45368,39.822516,-83.633595,"OH159",39.822516,-83.633595,0,"clark",39023,135520,396.875,3
"P42374","CVS Pharmacy #06173","106 MILAN AVENUE","NORWALK","OH",44857,41.251069,-82.611712,"OH16",41.2486403333333,-82.613793,321.602355419207,"huron",39077,58497,491.493,4
"P44117","Sam's Pharmacy 10-6556","50555 Valley Plaza Dr","St. Clairsville","OH",43950,40.075036,-80.878783,"OH160",40.074187,-80.8816122,258.867301028728,"belmont",39013,68889,532.124,3
"P42655","DILLONVALE PHARMACY","74 MAIN ST","DILLONVALE","OH",43917,40.196638,-80.775667,"OH161",40.1779185,-80.740867,3619.48709346093,"jefferson",39081,67349,408.123,3
"P42656","KAUP PHARMACY","102 North Wayne Street","FT RECOVERY","OH",458460605,40.413134,-84.779388,"OH162",40.413134,-84.779388,0,"mercer",39107,40723,462.443,7
"P42659","Klinger Pharmacy","102 W Jackson St","West Unity","OH",43570,41.586654,-84.434116,"OH163",41.586654,-84.434116,0,"williams",39171,37061,420.66,6
"P44081","RITE AID PHARMACY  06679","105 GOLDEN GATE PLAZA","MAUMEE","OH",43537,41.566286,-83.654844,"OH164",41.5718243333333,-83.6454855833333,993.771920110416,"wood",39173,129504,617.188,2
"P43104","The Medicine Shoppe Pharmacy","234 W MAIN STREET","BELLEVUE","OH",44811,41.274479,-82.843295,"OH165",41.2742295,-82.84278,51.2626407233882,"sandusky",39143,59559,408.246,4
"P42669","MORRISTOWN PHARMACY","66840 BELMONT MORRISTOWN RD","BELMONT","OH",437189665,40.064582,-81.056119,"OH167",40.064582,-81.056119,0,"belmont",39013,68889,532.124,3
"P42675","CVS Pharmacy #06191","214 LAFAYETTE ST","LONDON","OH",43140,39.896349,-83.438244,"OH168",39.89680275,-83.4380095,54.3367287243004,"madison",39097,43732,465.81,1
"P42676","CVS Pharmacy #11049","241 W MADISON ST","GIBSONBURG","OH",434311319,41.384399,-83.322721,"OH169",41.384399,-83.322721,0,"sandusky",39143,59559,408.246,4
"P42677","RITE AID PHARMACY  01167","633 SOUTH BROADWAY","GENEVA","OH",440411914,41.796654,-80.947183,"OH170",41.799549,-80.95004525,400.350075319446,"ashtabula",39007,98622,702.073,4
"P44420","Premier Pharmacy","4925 West Main St.","Berlin","OH",44681,40.561874,-81.799486,"OH171",40.561456,-81.799297,49.2002580311516,"holmes",39075,43808,422.553,7
"P43942","KROGER PHARMACY","475 FORTMAN DRIVE","ST MARYS","OH",45885,40.554617,-84.384699,"OH173",40.5513436666667,-84.3887743333333,501.589986695106,"auglaize",39011,45778,401.388,4
"P42690","FILLMORE PHARMACY","119 S SYCAMORE AVE","SYCAMORE","OH",448820107,40.949163,-83.170144,"OH174",40.949163,-83.170144,0,"wyandot",39175,22190,406.879,7
"P44339","Schwieterman Pharmacy","510 E Market St","Celina","OH",458221824,40.54892,-84.562825,"OH175",40.5546423333333,-84.5581856666667,748.172098176064,"mercer",39107,40723,462.443,7
"P42703","CAMDEN VILLAGE PHARMACY","75 W CENTRAL AVE","CAMDEN","OH",453111007,39.628928,-84.64968,"OH177",39.628928,-84.64968,0,"preble",39135,41328,424.227,6
"P42704","RITE AID PHARMACY  01282","11 MANSFIELD AVENUE","SHELBY","OH",448751301,40.881011,-82.656221,"OH178",40.873613,-82.6484725,1050.51176116195,"richland",39139,121533,495.199,3
"P42706","danner pharmacy","202 W MAIN ST","LOUDONVILLE","OH",448421198,40.635783,-82.235229,"OH179",40.635783,-82.235229,0,"ashland",39005,53299,422.961,4
"P43618","WALGREENS #6271","6320 E MAIN ST","REYNOLDSBURG","OH",43068,39.955103,-82.828474,"OH18",39.9518874489796,-82.8393578979592,995.355464313199,"franklin",39049,1253507,532.417,1
"P42711","CVS Pharmacy #06195","205 EAST MAIN STREET","CIRCLEVILLE","OH",43113,39.6008,-82.942014,"OH180",39.6005166,-82.9386704,288.51833747835,"pickaway",39129,57075,501.229,1
"P43414","RITE AID PHARMACY  04767","230 SOUTH MAIN STREET","BELLEFONTAINE","OH",433111702,40.358744,-83.760154,"OH182",40.3578143333333,-83.7535184444444,572.306227456319,"logan",39091,45323,458.51,6
"P43216","KROGER PHARMACY","1230 ROMBACH AVE","WILMINGTON","OH",45177,39.44795,-83.808057,"OH183",39.4480995,-83.8135195,469.857077532448,"clinton",39027,41869,408.686,6
"P42892","MILLERSPORT PHARMACY","12075 LANCASTER NEWARK RD NE","MILLERSPORT","OH",430469747,39.90105,-82.562297,"OH184",39.873507,-82.581755,3487.57019886171,"fairfield",39045,151526,504.408,1
"P42722","THORNVILLE PHARMACY","2 NORTH MAIN STREET","THORNVILLE","OH",43076,39.896568,-82.420895,"OH185",39.896568,-82.420895,0,"perry",39127,35983,407.934,1
"P43198","CVS Pharmacy #06194","4610 CEMETERY ROAD","HILLIARD","OH",43026,40.032165,-83.138998,"OH186",40.0273745833333,-83.1447341666667,723.490058725756,"franklin",39049,1253507,532.417,1
"P43452","CVS Pharmacy #03088","473 High St","WADSWORTH","OH",44281,41.035701,-81.728419,"OH187",41.026817,-81.722195375,1118.5621138576,"medina",39103,176362,421.458,1
"P42730","NORTHSIDE SOMERSET PHARMACY","110 W Main St","SOMERSET","OH",43783,39.807043,-82.299934,"OH188",39.807043,-82.299934,0,"perry",39127,35983,407.934,1
"P43174","CVS Pharmacy #04805","297 S MAIN ST","OBERLIN","OH",44074,41.284257,-82.217785,"OH189",41.29161,-82.2252376666667,1028.88436658025,"lorain",39093,305405,491.2,1
"P43356","KROGER PHARMACY","981 E COLUMBUS ST","KENTON","OH",43326,40.652986,-83.592324,"OH19",40.652222,-83.594303,187.530975998887,"hardin",39065,31576,470.309,6
"P42737","DISCOUNT DRUG MART","420 CLEVELAND ROAD EAST","HURON","OH",448391750,41.388082,-82.542996,"OH190",41.388082,-82.542996,0,"erie",39043,75369,251.379,4
"P42742","MAIN DISCOUNT DRUG","8507 MAIN ST","KINSMAN","OH",44428,41.452451,-80.582183,"OH191",41.452451,-80.582183,0,"trumbull",39155,203341,618.085,2
"P42745","RITE AID PHARMACY  00712","5 EAST ASHTABULA STREET","JEFFERSON","OH",440471109,41.742476,-80.768833,"OH192",41.739253,-80.7692435,360.399301679186,"ashtabula",39007,98622,702.073,4
"P43710","Giant Eagle Pharmacy #0203","12692 CHILLICOTHE ROAD","CHESTERLAND","OH",44026,41.523485,-81.337944,"OH193",41.524,-81.3376993333333,60.8479835830933,"geauga",39055,93895,400.301,1
"P43880","WALMART PHARMACY 10-3300","1257 BELLEFONTAINE STREET","WAPAKONETA","OH",45895,40.564925,-84.178352,"OH194",40.5709213333333,-84.1870103333333,990.77647527214,"auglaize",39011,45778,401.388,4
"P42756","MILLER'S PHARMACY & GIFTS LLC","101 S BROAD ST","KALIDA","OH",458530590,40.982652,-84.200223,"OH195",40.982652,-84.200223,0,"putnam",39137,34037,482.545,6
"P43860","Giant Eagle Pharmacy #4089","515 UNION AVENUE","DOVER","OH",44622,40.507549,-81.462856,"OH196",40.5058712222222,-81.4617296666667,209.692752299421,"tuscarawas",39157,92531,567.432,4
"P42944","RITE AID PHARMACY  02305","120 WEST  MAIN STREET","RUSSELLS POINT","OH",433489601,40.472997,-83.895897,"OH197",40.4702345,-83.8857065,916.125787139969,"logan",39091,45323,458.51,6
"P42776","DISCOUNT DRUG MART","814 NORTH MAIN STREET","WELLINGTON","OH",440901000,41.180183,-82.21708,"OH198",41.1762925,-82.2174575,434.241919583824,"lorain",39093,305405,491.2,1
"P42788","RITE AID PHARMACY  01659","437 NORTH WOLF CREEK STREET","BROOKVILLE","OH",45309,39.839622,-84.422859,"OH199",39.839682,-84.4232513333333,34.1936038335784,"montgomery",39113,531987,461.514,2
"P42357","MARTYS FAMILY PHARMACY","2249 LISBON ST","EAST LIVERPOOL","OH",439201024,40.645498,-80.597647,"OH2",40.6431801111111,-80.5880615555556,849.761788364667,"columbiana",39029,104584,531.918,4
"P42976","RITE AID PHARMACY  02364","618 NORTH CLINTON STREET","DEFIANCE","OH",435121609,41.295338,-84.360945,"OH202",41.2951348571429,-84.348815,1014.76212688997,"defiance",39039,38311,411.45,4
"P44096","Giant Eagle Pharmacy #1238","4453 LIBERTY AVENUE","Vermilion","OH",44089,41.423508,-82.343743,"OH203",41.424677,-82.3428673333333,149.254880815992,"lorain",39093,305405,491.2,1
"P42816","CVS Pharmacy #06145","1300 NORTH BARRON STREET","EATON","OH",45320,39.758974,-84.635746,"OH204",39.762656,-84.63819425,460.318260679953,"preble",39135,41328,424.227,6
"P42818","RITE AID PHARMACY  01793","651 LINCOLN STREET","CADIZ","OH",439079498,40.282243,-81.0009,"OH205",40.276815,-81.0001145,607.913420454261,"harrison",39067,15397,402.33,6
"P42826","CVS Pharmacy #11213","126 N MAIN STREET","BLUFFTON","OH",45817,40.893909,-83.890913,"OH206",40.893909,-83.890913,0,"allen",39003,104157,402.501,3
"P43744","KROGER PHARMACY","2028 E HARBOR RD","PORT CLINTON","OH",43452,41.514383,-82.902499,"OH207",41.515525,-82.8951022,629.523409877333,"ottawa",39123,40769,254.712,4
"P43770","DELPHOS DISCOUNT DRUGS","660 ELIDA AVE","DELPHOS","OH",45833,40.843558,-84.33203,"OH208",40.8432395,-84.329864,185.819631467072,"allen",39003,104157,402.501,3
"P42901","CVS Pharmacy #11396","119 N MARKET ST","SHREVE","OH",44676,40.681731,-82.02244,"OH209",40.681731,-82.02244,0,"wayne",39169,115915,554.805,4
"P43980","WALGREENS #10327","1000 E MAIN ST","GREENVILLE","OH",453312802,40.109708,-84.622806,"OH21",40.1082715,-84.6248836666667,238.457308922258,"darke",39037,51919,598.101,6
"P44316","SOMC Pharmacy Wheelersburg","8770 Ohio River Rd","Wheelersburg","OH",456941918,38.728639,-82.859914,"OH210",38.7237474,-82.858781,553.34898161413,"scioto",39145,76871,610.229,4
"P44129","DISCOUNT DRUG MART","525 W Marion Rd","Mount Gilead","OH",433381025,40.547523,-82.84502,"OH211",40.5479753333333,-82.845519,65.7046383086788,"morrow",39117,34935,406.134,1
"P42943","RITE AID PHARMACY  02303","101 WEST MAIN STREET","ENON","OH",453231233,39.878147,-83.937778,"OH217",39.878147,-83.937778,0,"clark",39023,135520,396.875,3
"P43020","Walmart Pharmacy 10-1416","1815 SCOTT ST.","NAPOLEON","OH",43545,41.401321,-84.132175,"OH218",41.3987485,-84.1322425,286.424852894152,"henry",39069,27463,416.009,6
"P42954","RITE AID PHARMACY  02320","113 N COUNTYLINE STREET","FOSTORIA","OH",448301766,41.158274,-83.421351,"OH219",41.161088,-83.4201713333333,328.484902481184,"seneca",39147,55549,551.027,4
"P44013","WALGREENS #9906","200 S LOCUST ST","OXFORD","OH",450561718,39.508167,-84.749465,"OH22",39.51262425,-84.75377475,619.028258194438,"butler",39017,375702,466.529,1
"P44206","Bryan Community Health Center Pharmacy","228 S Main St","Bryan","OH",435061755,41.472226,-84.551248,"OH221",41.4701992,-84.5547256,367.484599290355,"williams",39171,37061,420.66,6
"P42965","RITE AID PHARMACY  02348","1496 NORTH SHOOP AVENUE","WAUSEON","OH",435671825,41.572885,-84.133824,"OH222",41.5624866666667,-84.1342573333333,1158.0996679108,"fulton",39051,42296,405.448,2
"P44155","Kroger Pharmacy #531","8730 Waterville Swanton Rd","Waterville","OH",435669726,41.507466,-83.749498,"OH223",41.5148163333333,-83.7575486666667,1058.24315558357,"lucas",39095,433404,339.652,2
"P43914","KROGER PHARMACY","113 EAST AIRPORT HIGHWAY","SWANTON","OH",43558,41.582341,-83.885648,"OH224",41.5817365,-83.8861285,78.2886172107824,"lucas",39095,433404,339.652,2
"P42978","RITE AID PHARMACY  02372","1000 NORTH WILLIAMS STREET","PAULDING","OH",458791076,41.150104,-84.58084,"OH225",41.150104,-84.58084,0,"paulding",39125,18951,416.435,6
"P42987","RITE AID PHARMACY  02373","21991 WEST STATE ROUTE 51","GENOA","OH",434301251,41.530428,-83.357771,"OH226",41.530428,-83.357771,0,"ottawa",39123,40769,254.712,4
"P43115","MEDICINE CENTER PHARMACY","251 East St","MINERVA","OH",44657,40.730041,-81.101668,"OH227",40.726676,-81.10637,545.577156881007,"carroll",39019,27825,394.61,2
"P44468","DISCOUNT DRUG MART #88","7626 State Route 45","Lisbon","OH",444329394,40.789725,-80.776906,"OH229",40.7883875,-80.7760765,164.486708667746,"columbiana",39029,104584,531.918,4
"P43001","WEYRAUCHS PHARMACY","4959 KIDRON RD","KIDRON","OH",44636,40.739364,-81.745282,"OH230",40.739364,-81.745282,0,"wayne",39169,115915,554.805,4
"P43024","RITE AID PHARMACY  02566","306 WEST WATER STREET","OAK HARBOR","OH",434491336,41.507864,-83.150539,"OH231",41.507714,-83.1497645,66.6891892399881,"ottawa",39123,40769,254.712,4
"P43005","RITE AID PHARMACY  02449","25 WEST MAIN STREET","EAST PALESTINE","OH",444131841,40.832519,-80.540757,"OH232",40.832519,-80.540757,0,"columbiana",39029,104584,531.918,4
"P43025","RITE AID PHARMACY  02437","8619 WAYNESBURG DRIVE SE","WAYNESBURG","OH",446889549,40.676447,-81.261201,"OH234",40.676447,-81.261201,0,"stark",39151,374273,575.31,2
"P43035","CANAL PHARMACY","102 S BROADWAY","SPENCERVILLE","OH",45887,40.707493,-84.354317,"OH235",40.707493,-84.354317,0,"allen",39003,104157,402.501,3
"P43997","KROGER PHARMACY #395","1001 CHERRY ST STE A","BLANCHESTER","OH",45107,39.299828,-83.959588,"OH236",39.297398,-83.9708,1003.02507568903,"clinton",39027,41869,408.686,6
"P44375","FAMILY CARE PHARMACY","1260 S. Defiance St.","Archbold","OH",43502,41.50908,-84.305335,"OH237",41.502239,-84.306421,766.899431127357,"fulton",39051,42296,405.448,2
"P43060","BUKMIR'S PHARMACY","908 3RD ST","BRILLIANT","OH",439131049,40.26355,-80.630983,"OH238",40.26355,-80.630983,0,"brooke",54009,23067,89.195,3
"P43061","Benzer Pharmacy","817 MAIN ST","DRESDEN","OH",43821,40.120835,-82.010987,"OH239",40.120835,-82.010987,0,"muskingum",39119,85933,664.543,4
"P43386","CVS Pharmacy #04477","7541 N MAIN ST","DAYTON","OH",45415,39.833087,-84.253376,"OH24",39.8232390384615,-84.2632034615385,1381.17986116009,"montgomery",39113,531987,461.514,2
"P43070","CVS Pharmacy #11050","100 E MAIN ST","WOODVILLE","OH",43469,41.450543,-83.362794,"OH240",41.450543,-83.362794,0,"sandusky",39143,59559,408.246,4
"P43254","DISCOUNT DRUG MART","8459 Washington St","CHAGRIN FALLS","OH",440234519,41.411847,-81.340308,"OH241",41.41146475,-81.351697,951.78516136834,"geauga",39055,93895,400.301,1
"P43091","Walmart Pharmacy 10-1478","354 PR DR","SOUTH POINT","OH",45680,38.411596,-82.524782,"OH242",38.4124806666667,-82.5432593333333,1614.70662521647,"wayne",54099,41063,506.008,2
"P43100","Walmart Pharmacy 10-1724","1640 SOUTH WASHINGTON STREET","MILLERSBURG","OH",44654,40.533981,-81.919436,"OH243",40.533981,-81.919436,0,"holmes",39075,43808,422.553,7
"P43110","PROSPECT PHARMACY","171 S MAIN ST","PROSPECT","OH",433429569,40.449318,-83.189306,"OH244",40.449318,-83.189306,0,"marion",39101,65483,403.808,4
"P43503","CVS Pharmacy #02394","1013 WASHINGTON BLVD","BELPRE","OH",45714,39.273758,-81.581496,"OH245",39.27414775,-81.58041225,102.978719252384,"wood",54107,86016,366.508,3
"P43798","DISCOUNT DRUG MART","1062 WEST MCPHERSON HIGHWAY","CLYDE","OH",434101002,41.314983,-82.991613,"OH246",41.3119865,-82.9831315,783.697543005267,"sandusky",39143,59559,408.246,4
"P43143","RITE AID PHARMACY  03266","117 SOUTH MAIN STREET","FREDERICKTOWN","OH",430191225,40.477318,-82.541352,"OH247",40.477318,-82.541352,0,"knox",39083,60945,525.507,4
"P43147","Benzer Pharmacy","26 EAST 3RD ST","FRAZEYSBURG","OH",43822,40.118958,-82.115773,"OH248",40.118958,-82.115773,0,"muskingum",39119,85933,664.543,4
"P44100","Kroger Pharmacy","131 State Route 3","Sunbury","OH",43074,40.246259,-82.868619,"OH249",40.24546,-82.866636,190.526591786068,"delaware",39041,193024,443.159,1
"P43961","DISCOUNT DRUG MART","7617 DAYTON SPRINGFIELD RD","FAIRBORN","OH",45324,39.793946,-84.09588,"OH25",39.81274325,-84.0844844,2308.31662318598,"greene",39057,164825,413.625,2
"P44210","Falcon Health Center Pharmacy","838 East Wooster Street","BOWLING GREEN","OH",43402,41.374419,-83.639322,"OH250",41.3727382222222,-83.6426267777778,333.49813389279,"wood",39173,129504,617.188,2
"P43872","WALGREENS #9093","5195 N HAMILTON RD","COLUMBUS","OH",432301313,40.062928,-82.86331,"OH251",40.0633376875,-82.8636191875,52.6670218744195,"franklin",39049,1253507,532.417,1
"P43633","DISCOUNT DRUG MART","592 12TH STREET NW","CARROLLTON","OH",446159413,40.589596,-81.091369,"OH252",40.582294,-81.0906485,815.133875634207,"carroll",39019,27825,394.61,2
"P44222","Midview Drug","35053 ROYALTON RD","GRAFTON","OH",44044,41.313835,-82.004353,"OH253",41.2982235,-82.0340505,3031.06585006453,"lorain",39093,305405,491.2,1
"P44067","RITE AID PHARMACY  07939","1233 SOM CENTER ROAD","MAYFIELD","OH",441242050,41.52702,-81.438611,"OH254",41.529881375,-81.44160275,404.501075165446,"cuyahoga",39035,1257401,457.18,1
"P44471","Conway's Danville Pharmacy","14 East Main Street","Danville","OH",43014,39.038467,-83.747628,"OH255",39.0260715,-83.7783065,2990.23961994257,"highland",39071,43031,553.083,6
"P44133","KROGER PHARMACY","800 W Coshocton St","Johnstown","OH",430319587,40.146795,-82.707696,"OH257",40.1457245,-82.7068495,139.245690398222,"licking",39089,170678,682.437,1
"P43228","WALGREENS #21252","16100 Lake Shore Blvd","CLEVELAND","OH",441101001,41.579506,-81.568678,"OH258",41.579506,-81.568678,0,"cuyahoga",39035,1257401,457.18,1
"P44230","Main Street Pharmacy & Wellness Center","120 N Main St","Orrville","OH",446671638,40.841056,-81.764145,"OH259",40.841275,-81.7642153333333,25.088210894802,"wayne",39169,115915,554.805,4
"P43271","CVS Pharmacy #03183","116 AINSWORTH ST","LODI","OH",44254,41.032606,-82.012523,"OH260",41.0301135,-82.006439,581.37951378934,"medina",39103,176362,421.458,1
"P43273","BREWSTER FAMILY PHARMACY","360 N WABASH","BREWSTER","OH",446131000,40.717829,-81.597271,"OH261",40.717829,-81.597271,0,"stark",39151,374273,575.31,2
"P43283","Fosters Centerburg Valu-Rite Pharmacy","4584 COLUMBUS RD","CENTERBURG","OH",43011,40.308674,-82.689705,"OH262",40.308674,-82.689705,0,"knox",39083,60945,525.507,4
"P43708","KROGER PHARMACY","6011 GROVEPORT RD","GROVEPORT","OH",43125,39.85338,-82.898879,"OH264",39.8385245,-82.9185925,2360.83202831349,"franklin",39049,1253507,532.417,1
"P44135","KROGER PHARMACY","6417 COLUMBUS PIKE","LEWIS CENTER","OH",43035,40.202845,-83.02873,"OH265",40.202845,-83.02873,0,"delaware",39041,193024,443.159,1
"P44270","Holbrook's Hometown Pharmacy","37C W Lucasville-Minford Rd","Lucasville","OH",456489023,38.876542,-82.963694,"OH268",38.876413,-82.980644,1468.99655806469,"scioto",39145,76871,610.229,4
"P43337","Benzer Pharmacy","8465 State Route 339","Vincent","OH",45784,39.397373,-81.667241,"OH269",39.397373,-81.667241,0,"washington",39167,60871,631.974,4
"P43347","Benzer Pharmacy","263 XENIA AVE","YELLOW SPRINGS","OH",45387,39.804739,-83.889392,"OH270",39.804739,-83.889392,0,"greene",39057,164825,413.625,2
"P43354","FRANKLIN FURNACE PHARMACY","561 NORWICH AVE","FRANKLIN FURNACE","OH",45629,38.624128,-82.84519,"OH271",38.624128,-82.84519,0,"greenup",21089,36012,344.462,2
"P43543","Giant Eagle Pharmacy #4097","6556 N. Ridge Road","Madison","OH",44057,41.80157,-81.055584,"OH272",41.802081,-81.055982,65.7771551910433,"lake",39085,229701,229.268,1
"P43498","Benzer Pharmacy","155 N Point Dr","MOUNT ORAB","OH",45154,39.043463,-83.9227,"OH273",39.0423626666667,-83.9286003333333,524.636172830131,"brown",39015,43799,490.017,1
"P43522","FITZGERALD SEAMAN PHARMACY","17860 A STATE RTE 247","SEAMAN","OH",45679,38.941721,-83.571839,"OH275",38.935496,-83.568143,763.291593116358,"adams",39001,27926,583.866,6
"P43532","PLAIN CITY DRUGGIST","480 S Jefferson Ave Ste 100","Plain City","OH",43064,40.1036,-83.279254,"OH276",40.1036,-83.279254,0,"madison",39097,43732,465.81,1
"P44470","Royal Pharmacy","730 Corylus Dr","Pataskala","OH",430627625,40.006727,-82.659852,"OH278",40.005987,-82.6610023333333,128.089037255632,"licking",39089,170678,682.437,1
"P43657","Community Markets 310 Pharmacy","702 Main St","DELTA","OH",43515,41.573781,-83.998938,"OH279",41.573781,-83.998938,0,"fulton",39051,42296,405.448,2
"P42998","RITE AID PHARMACY  02417","364 MAIN STREET","CONNEAUT","OH",440302631,41.941916,-80.559811,"OH28",41.942916,-80.558619,148.773508219427,"ashtabula",39007,98622,702.073,4
"P43672","KAUP PHARMACY","42 W MAIN ST","VERSAILLES","OH",45380,40.222491,-84.485239,"OH280",40.222491,-84.485239,0,"darke",39037,51919,598.101,6
"P43690","CVS Pharmacy #05431","592 WEST PLANE ST","BETHEL","OH",45106,38.964386,-84.087607,"OH282",38.964386,-84.087607,0,"clermont",39025,202166,452.124,1
"P44108","HealingSprings Pharmacy","2449 Ross Millville Rd Ste 185","Hamilton","OH",45013,39.3572,-84.643336,"OH283",39.3416195,-84.6391255,1771.88045568504,"butler",39017,375702,466.529,1
"P43725","YOUNGS PHARMACY","15986 STATE ROUTE 56","LAURELVILLE","OH",43135,39.474195,-82.741862,"OH284",39.474195,-82.741862,0,"pickaway",39129,57075,501.229,1
"P44127","Benzer Pharmacy","96-D INTEGRITY DR","Hebron","OH",43025,39.967996,-82.486689,"OH285",39.9647025,-82.483082,478.667487205189,"licking",39089,170678,682.437,1
"P43756","C & R Pharmacy","204 N DETROIT STREET","WEST LIBERTY","OH",43357,40.253493,-83.756151,"OH286",40.253493,-83.756151,0,"champaign",39021,39005,428.994,6
"P43947","Smith's Pharmacy","11016 Main St","SOUTH WEBSTER","OH",45682,38.813534,-82.727148,"OH288",38.813534,-82.727148,0,"scioto",39145,76871,610.229,4
"P44392","ONU HealthWise Pharmacy","511 W. Lincoln Ave","Ada","OH",458106000,40.768561,-83.828577,"OH289",40.766553,-83.8258065,323.302944794763,"hardin",39065,31576,470.309,6
"P43239","WALGREENS #3234","4281 W 130TH ST","CLEVELAND","OH",44135,41.438471,-81.779324,"OH29",41.4389901060606,-81.7548512272727,2043.12408378421,"cuyahoga",39035,1257401,457.18,1
"P44025","WALGREENS #11511","1001 W STATE ST","TRENTON","OH",450670137,39.480528,-84.477767,"OH290",39.480528,-84.477767,0,"butler",39017,375702,466.529,1
"P44051","MEDI-WISE PHARMACY","245 W STATE ST","NEWCOMERSTOWN","OH",43832,40.270519,-81.608422,"OH291",40.270519,-81.608422,0,"tuscarawas",39157,92531,567.432,4
"P44087","Toronto Apothecary","1361 FRANKLIN STREET","TORONTO","OH",43964,40.453484,-80.607274,"OH293",40.452369,-80.609506,226.168869129699,"hancock",54029,29921,82.608,3
"P44145","Riley Creek Pharmacy","112 E MAIN ST","PANDORA","OH",45877,40.948068,-83.96147,"OH294",40.948068,-83.96147,0,"putnam",39137,34037,482.545,6
"P44147","ARLINGTON PHARMACY LTD","106 N MAIN ST","ARLINGTON","OH",45814,40.893716,-83.651169,"OH295",40.893716,-83.651169,0,"hancock",39063,75508,531.326,4
"P44157","Saint Paris Pharmacy","122 S Springfield St","Saint Paris","OH",430720563,40.127885,-83.959436,"OH297",40.127885,-83.959436,0,"champaign",39021,39005,428.994,6
"P44191","Great Scot 90 Pharmacy","13710 Deshler Rd","North Baltimore","OH",458729794,41.173286,-83.663084,"OH298",41.173286,-83.663084,0,"hancock",39063,75508,531.326,4
"P44238","Richwood Pharmacy","24 W Ottawa St","Richwood","OH",433441139,40.426496,-83.297688,"OH299",40.426496,-83.297688,0,"union",39159,54688,431.726,1
"P42408","CVS Pharmacy #03347","13956 CEDAR RD","UNIVERSITY HEIGHTS","OH",44118,41.501048,-81.537774,"OH30",41.5002744727273,-81.5480615636364,862.011681419447,"cuyahoga",39035,1257401,457.18,1
"P44242","Jackson Pharmacy & Wellness Center","101B E Pike St","Jackson Center","OH",453346000,40.439593,-84.03992,"OH300",40.439593,-84.03992,0,"shelby",39149,48902,407.695,4
"P44248","IHS PHARMACY-JAMESTOWN","4940 Cottonville Rd","Jamestown","OH",453351522,39.65436,-83.750532,"OH301",39.65436,-83.750532,0,"greene",39057,164825,413.625,2
"P44264","Happy Druggist Pharmacy-WJD","487 W Main St","West Jefferson","OH",431621178,39.943708,-83.281819,"OH302",39.943708,-83.281819,0,"madison",39097,43732,465.81,1
"P44306","University Hospitals Geauga Medical Center Outpatient Pharma","13207 Ravenna Rd Pharmacy Department","Chardon","OH",440247032,41.508744,-81.189601,"OH303",41.508744,-81.189601,0,"geauga",39055,93895,400.301,1
"P44332","Swiss Village Pharmacy, LLC","309 S Broadway St","Sugarcreek","OH",446819381,40.500859,-81.64252,"OH304",40.500859,-81.64252,0,"tuscarawas",39157,92531,567.432,4
"P44349","Town Drug","12459 EAST US RT 22 3","SABINA","OH",45169,39.492042,-83.619858,"OH305",39.492042,-83.619858,0,"clinton",39027,41869,408.686,6
"P44354","Essentra Pharmacy","73 Sportsman's Dr Ste B","Marengo","OH",433341800,40.377799,-82.830069,"OH306",40.377799,-82.830069,0,"morrow",39117,34935,406.134,1
"P44397","Antwerp Pharmacy","109 S MAIN ST","ANTWERP","OH",458130246,41.180982,-84.740596,"OH307",41.180982,-84.740596,0,"paulding",39125,18951,416.435,6
"P44413","Anson Pharmacy","209 Bierley Ave","Pemberville","OH",434507003,41.410694,-83.454359,"OH308",41.410694,-83.454359,0,"wood",39173,129504,617.188,2
"P44424","LCC Medical Clinic","120 E Main St","Leipsic","OH",458561427,41.098869,-83.985256,"OH309",41.098869,-83.985256,0,"putnam",39137,34037,482.545,6
"P44440","Cedar Care Village Pharmacy","63 N Main St","Cedarville","OH",453148637,39.74123,-83.807095,"OH310",39.74123,-83.807095,0,"greene",39057,164825,413.625,2
"P44497","Kratzer's Hometown Pharmacy Lynchburg","263 N Main Street","Lynchburg","OH",45142,39.244558,-83.792577,"OH311",39.244558,-83.792577,0,"highland",39071,43031,553.083,6
"P44502","LAGRANGE PHARMACY","540 N Center St","Lagrange","OH",440509749,41.247165,-82.119571,"OH312",41.247165,-82.119571,0,"lorain",39093,305405,491.2,1
"P44243","Lake Health/University Hospitals Seidman Cancer Center","9485 Mentor Ave Suite #3","Mentor","OH",44060,41.6821,-81.299483,"OH32",41.6915640952381,-81.3049250476191,1146.56796905181,"lake",39085,229701,229.268,1
"P42464","OHLIGER DRUG OF NORTH OLMSTED","27121 Center Ridge Rd","Westlake","OH",441454024,41.449011,-81.921119,"OH33",41.4484277241379,-81.9103475172414,901.107901989822,"cuyahoga",39035,1257401,457.18,1
"P43013","MARCS","29700 LAKESHORE BLVD","WILLOWICK","OH",44095,41.634146,-81.476912,"OH34",41.615570047619,-81.4725377619048,2099.65649654899,"lake",39085,229701,229.268,1
"P43293","WALMART PHARMACY 10-2266","8585 PEARL ROAD","STRONGSVILLE","OH",44136,41.346213,-81.8196,"OH35",41.3408092105263,-81.8367437894737,1553.93980189645,"cuyahoga",39035,1257401,457.18,1
"P42501","DISCOUNT DRUG MART","500 Abbe Rd N","ELYRIA","OH",440353743,41.387645,-82.077474,"OH36",41.3926906111111,-82.0729582222222,676.541408810043,"lorain",39093,305405,491.2,1
"P42770","CVS Pharmacy #05941","1890 N RIDGE RD","PAINESVILLE","OH",44077,41.749448,-81.207568,"OH37",41.749448,-81.207568,0,"lake",39085,229701,229.268,1
"P42515","CROSBYS DRUG INC","2609 N HIGH ST","COLUMBUS","OH",432022555,40.01543,-83.011765,"OH4",40.0145874189189,-83.0083515810811,305.75952590673,"franklin",39049,1253507,532.417,1
"P43927","WALGREENS #9833","318 PROSPECT RD","ASHTABULA","OH",440045861,41.870408,-80.782925,"OH40",41.8732105,-80.784022375,324.964061532433,"ashtabula",39007,98622,702.073,4
"P43327","RITE AID PHARMACY  04247","218 CHESTNUT STREET","COSHOCTON","OH",438121131,40.275338,-81.868491,"OH48",40.2794865,-81.86414675,591.093197050055,"coshocton",39031,36602,563.96,6
"P43714","WALGREENS #6981","1280 DEMOREST RD","COLUMBUS","OH",432047003,39.928203,-83.08988,"OH52",39.93096065,-83.095278675,553.732470579439,"franklin",39049,1253507,532.417,1
"P42433","CVS Pharmacy #03402","115 N COLLEGE ST","PIQUA","OH",45356,40.146734,-84.248955,"OH54",40.1371614,-84.2394668,1336.96663358561,"miami",39109,104081,406.511,2
"P42651","RITE AID PHARMACY  01006","34 SOUTH ALLISON AVENUE","XENIA","OH",453853622,39.683366,-83.943399,"OH55",39.6855985,-83.9469451666667,392.49671249784,"greene",39057,164825,413.625,2
"P43023","KROGER PHARMACY","1637 E US HIGHWAY 36 STE 14","URBANA","OH",43078,40.109275,-83.773034,"OH56",40.11631325,-83.7559925,1648.8627035067,"champaign",39021,39005,428.994,6
"P42436","CVS Pharmacy #03457","201 S Main St","NEW CARLISLE","OH",453441954,39.935891,-84.02529,"OH57",39.9201723333333,-84.0324113333333,1852.38789514387,"clark",39023,135520,396.875,3
"P43836","WALGREENS #7884","1140 N LIMESTONE ST","SPRINGFIELD","OH",455033622,39.938186,-83.805364,"OH58",39.93547105,-83.80160195,440.966433085389,"clark",39023,135520,396.875,3
"P43645","WALGREENS #6485","19 LONDON ROAD","DELAWARE","OH",430152613,40.289868,-83.069356,"OH59",40.2892061428571,-83.0762484285714,589.876148212381,"delaware",39041,193024,443.159,1
"P43170","DISCOUNT DRUG MART","1155 EAST WYANDOT AVENUE","UPPER SANDUSKY","OH",433519630,40.829462,-83.25994,"OH60",40.83220675,-83.2653165,546.29444146655,"wyandot",39175,22190,406.879,7
"P42841","RITE AID PHARMACY  03028","1955 CLEVELAND ROAD","WOOSTER","OH",446912256,40.823729,-81.933587,"OH63",40.8257325,-81.9277315,541.328456328853,"wayne",39169,115915,554.805,4
"P42453","HARRYS PHARMACY","101 E FINDLAY ST","CAREY","OH",433161247,40.952396,-83.382512,"OH64",40.9480785,-83.3914635,892.989912582851,"wyandot",39175,22190,406.879,7
"P43491","RITE AID PHARMACY  04953","3871 CENTER ROAD","BRUNSWICK","OH",442123058,41.238545,-81.82504,"OH65",41.2466394444444,-81.8230125555556,916.911076968545,"medina",39103,176362,421.458,1
"P43590","Giant Eagle Pharmacy #4098","351 Center St.","CHARDON","OH",44024,41.58358,-81.217892,"OH66",41.58346825,-81.217341,47.536033416231,"geauga",39055,93895,400.301,1
"P43501","RITE AID PHARMACY  04764","8085 BROADVIEW ROAD","BROADVIEW HEIGHTS","OH",441471203,41.345803,-81.68366,"OH67",41.335443,-81.6906398461538,1292.41793207804,"cuyahoga",39035,1257401,457.18,1
"P42460","SCHWIETERMAN PHARMACY","2 N WASHINGTON ST","NEW BREMEN","OH",458691113,40.436674,-84.380185,"OH70",40.4183265,-84.378492,2047.46672139076,"auglaize",39011,45778,401.388,4
"P42682","CVS Pharmacy #06151","900 COSHOCTON ROAD","MOUNT VERNON","OH",43050,40.399774,-82.456955,"OH71",40.3964038333333,-82.4628285,623.448295140922,"knox",39083,60945,525.507,4
"P43128","Walmart Pharmacy 10-1839","4380 Leavitt Rd","Lorain","OH",440532370,41.428831,-82.203345,"OH72",41.4305860769231,-82.1955070769231,682.734426230092,"lorain",39093,305405,491.2,1
"P43008","Walmart Pharmacy 10-1333","301 TOWN CENTER BLVD","VAN WERT","OH",45891,40.888446,-84.578163,"OH73",40.873709,-84.5855825,1755.34791615435,"van wert",39161,28262,409.153,6
"P44119","WALGREENS #12372","1240 Columbus Ave","Washington Court House","OH",431601655,39.547071,-83.427066,"OH74",39.54033,-83.435554,1045.95150083514,"fayette",39047,28659,406.361,6
"P44041","WALGREENS #11158","1090 NORTHVIEW DR","HILLSBORO","OH",451337629,39.219363,-83.607461,"OH75",39.2175098333333,-83.6133321666667,546.762287236239,"highland",39071,43031,553.083,6
"P42469","CVS Pharmacy #03472","1116 WHEELING AVE","CAMBRIDGE","OH",43725,40.024439,-81.584215,"OH76",40.0209602,-81.5774642,693.653334757126,"guernsey",39059,39414,522.254,6
"P43101","KROGER PHARMACY","1425 WORTHINGTON CENTRE DR","WORTHINGTON","OH",43085,40.123027,-82.979541,"OH77",40.11822275,-82.9659362,1275.62877763851,"franklin",39049,1253507,532.417,1
"P42475","SCHWIETERMANS DRUG STORE INC","404 W North St","COLDWATER","OH",458281507,40.480818,-84.632444,"OH78",40.480818,-84.632444,0,"mercer",39107,40723,462.443,7
"P43382","CVS Pharmacy #07767","124 SOUTH MAIN ST","UNION","OH",45322,39.895434,-84.307007,"OH79",39.895434,-84.307007,0,"montgomery",39113,531987,461.514,2
"P43250","KROGER PHARMACY","780 NORTHWOODS BLVD","VANDALIA","OH",45377,39.8994,-84.184093,"OH81",39.888114,-84.1736316666667,1541.66567794036,"montgomery",39113,531987,461.514,2
"P42805","KROGER PHARMACY","6306 County Road 107","PROCTORVILLE","OH",45669,38.436958,-82.386751,"OH82",38.4345013333333,-82.4066753333333,1758.73855308713,"cabell",54011,96100,281.021,2
"P42481","RINGS PHARMACY","221 W MAIN ST","MONTPELIER","OH",435431099,41.586663,-84.609775,"OH83",41.586663,-84.609775,0,"williams",39171,37061,420.66,6
"P42483","HERBERTS PHARMACY","270 E MAIN ST Suite 1087","ANDOVER","OH",440031087,41.606939,-80.56734,"OH84",41.606939,-80.56734,0,"ashtabula",39007,98622,702.073,4
"P42485","Happy Druggist-MD","26 S MAIN ST","MECHANICSBURG","OH",430441111,40.071485,-83.555147,"OH85",40.071485,-83.555147,0,"champaign",39021,39005,428.994,6
"P42831","MAKOS PHARMACY","240 E THIRD ST","UHRICHSVILLE","OH",44683,40.390716,-81.343793,"OH87",40.393402,-81.3425086666667,318.214912314109,"tuscarawas",39157,92531,567.432,4
"P42493","Hicksville Pharmacy and Home Medical","116-118 E HIGH ST","HICKSVILLE","OH",43526,41.293544,-84.761726,"OH89",41.293544,-84.761726,0,"defiance",39039,38311,411.45,4
"P42758","WALGREENS #5196","6355 DIXIE HWY","FAIRFIELD","OH",450144215,39.322719,-84.504358,"OH9",39.3248971481481,-84.5056336666667,266.194571379155,"butler",39017,375702,466.529,1
"P42494","B AND W PHARMACY","501 Dietz Lane","BEVERLY","OH",45715,39.549738,-81.630681,"OH90",39.549738,-81.630681,0,"washington",39167,60871,631.974,4
"P43682","WALGREENS #6588","32798 WALKER RD","AVON LAKE","OH",44012,41.493804,-82.020318,"OH91",41.4822806363636,-82.0269125454546,1395.67679387551,"lorain",39093,305405,491.2,1
"P42500","Benzer Pharmacy","1650 W Church St","NEWARK","OH",430551535,40.058281,-82.447928,"OH93",40.0543498,-82.4392052666667,862.491283281508,"licking",39089,170678,682.437,1
"P43780","KROGER PHARMACY","210 E MARY ST","BUCYRUS","OH",44820,40.810981,-82.973591,"OH94",40.809634,-82.96767225,520.741301417588,"crawford",39033,42231,401.786,4
"P44064","WALGREENS #11293","300 GREENE ST","MARIETTA","OH",457503133,39.412389,-81.448906,"OH95",39.415466,-81.444255,526.618739008512,"wood",54107,86016,366.508,3
"P44107","WALGREENS #12159","1900 W State St","Fremont","OH",434201638,41.35673,-83.135967,"OH96",41.3570151666667,-83.1237965,1017.43033432006,"sandusky",39143,59559,408.246,4
"P42508","BRISTOW PHARMACY","100 MAIN ST","RIPLEY","OH",45167,38.74573,-83.845242,"OH97",38.74573,-83.845242,0,"brown",39015,43799,490.017,1
"P42509","Berry Pharmacy Co Inc","1041B OLD US 52","NEW RICHMOND","OH",45157,38.96657,-84.286266,"OH98",38.96657,-84.286266,0,"campbell",21037,91804,151.341,1
"P43475","RITE AID PHARMACY  02441","800 DELAWARE AVENUE","MARYSVILLE","OH",430401724,40.236336,-83.356,"OH99",40.2320391428571,-83.3539405714286,509.337004543338,"union",39159,54688,431.726,1
